{"type":"FeatureCollection", "features": [
{"type":"Feature","geometry":{"type":"Point","coordinates":[73.17199102300003,33.68576140800019,0,-1.7976931348623157e+308]},"properties":{"OID_":0,"Name":"ZONE 4-A","FolderPath":"Illegal Schemes zones/Illegal Schemes zones.kmz/Illegal Schemes/Boundary","SymbolID":0,"AltMode":-1,"Base":0,"Snippet":"","PopupInfo":"","HasLabel":-1,"LabelID":0}},
{"type":"Feature","geometry":{"type":"Point","coordinates":[73.22247846700014,33.74601159200017,0,-1.7976931348623157e+308]},"properties":{"OID_":0,"Name":"ZONE 4-B2","FolderPath":"Illegal Schemes zones/Illegal Schemes zones.kmz/Illegal Schemes/Boundary","SymbolID":0,"AltMode":-1,"Base":0,"Snippet":"","PopupInfo":"","HasLabel":-1,"LabelID":0}},
{"type":"Feature","geometry":{"type":"Point","coordinates":[73.297823854,33.70764826400011,0,-1.7976931348623157e+308]},"properties":{"OID_":0,"Name":"ZONE 4-D","FolderPath":"Illegal Schemes zones/Illegal Schemes zones.kmz/Illegal Schemes/Boundary","SymbolID":0,"AltMode":-1,"Base":0,"Snippet":"","PopupInfo":"","HasLabel":-1,"LabelID":0}},
{"type":"Feature","geometry":{"type":"Point","coordinates":[73.22117395200013,33.66534128000012,0,-1.7976931348623157e+308]},"properties":{"OID_":0,"Name":"ZONE 4-C","FolderPath":"Illegal Schemes zones/Illegal Schemes zones.kmz/Illegal Schemes/Boundary","SymbolID":0,"AltMode":-1,"Base":0,"Snippet":"","PopupInfo":"","HasLabel":-1,"LabelID":0}},
{"type":"Feature","geometry":{"type":"Point","coordinates":[73.12973664200007,33.62629811900007,0,-1.7976931348623157e+308]},"properties":{"OID_":0,"Name":"ZONE 4-B1","FolderPath":"Illegal Schemes zones/Illegal Schemes zones.kmz/Illegal Schemes/Boundary","SymbolID":0,"AltMode":-1,"Base":0,"Snippet":"","PopupInfo":"","HasLabel":-1,"LabelID":0}},
{"type":"Feature","geometry":{"type":"Point","coordinates":[72.90785463000009,33.598075156000164,0,-1.7976931348623157e+308]},"properties":{"OID_":0,"Name":"Ammar Town","FolderPath":"Illegal Schemes zones/Illegal Schemes zones.kmz/Illegal Schemes/Zone 1/Zone-1.kmz","SymbolID":1,"AltMode":-1,"Base":0,"Snippet":"","PopupInfo":"","HasLabel":-1,"LabelID":1}},
{"type":"Feature","geometry":{"type":"Point","coordinates":[72.90353343300006,33.597065305,0,-1.7976931348623157e+308]},"properties":{"OID_":0,"Name":"Buraq Valley","FolderPath":"Illegal Schemes zones/Illegal Schemes zones.kmz/Illegal Schemes/Zone 1/Zone-1.kmz","SymbolID":2,"AltMode":-1,"Base":0,"Snippet":"","PopupInfo":"","HasLabel":-1,"LabelID":1}},
{"type":"Feature","geometry":{"type":"Point","coordinates":[72.9048802850001,33.59630262400009,0,-1.7976931348623157e+308]},"properties":{"OID_":0,"Name":"Chinnar Town","FolderPath":"Illegal Schemes zones/Illegal Schemes zones.kmz/Illegal Schemes/Zone 1/Zone-1.kmz","SymbolID":1,"AltMode":-1,"Base":0,"Snippet":"","PopupInfo":"","HasLabel":-1,"LabelID":1}},
{"type":"Feature","geometry":{"type":"Point","coordinates":[72.9028404170001,33.607316814000114,0,-1.7976931348623157e+308]},"properties":{"OID_":0,"Name":"Civic Center","FolderPath":"Illegal Schemes zones/Illegal Schemes zones.kmz/Illegal Schemes/Zone 1/Zone-1.kmz","SymbolID":2,"AltMode":-1,"Base":0,"Snippet":"","PopupInfo":"","HasLabel":-1,"LabelID":1}},
{"type":"Feature","geometry":{"type":"Point","coordinates":[72.93142175500003,33.61801760700007,0,-1.7976931348623157e+308]},"properties":{"OID_":0,"Name":"Gulshan-e-Taleem, H-15","FolderPath":"Illegal Schemes zones/Illegal Schemes zones.kmz/Illegal Schemes/Zone 1/Zone-1.kmz","SymbolID":1,"AltMode":-1,"Base":0,"Snippet":"","PopupInfo":"","HasLabel":-1,"LabelID":1}},
{"type":"Feature","geometry":{"type":"Point","coordinates":[72.93465775600004,33.6185678490001,0,-1.7976931348623157e+308]},"properties":{"OID_":0,"Name":"Jhangi Sayedain Homes, H-15","FolderPath":"Illegal Schemes zones/Illegal Schemes zones.kmz/Illegal Schemes/Zone 1/Zone-1.kmz","SymbolID":1,"AltMode":-1,"Base":0,"Snippet":"","PopupInfo":"","HasLabel":-1,"LabelID":1}},
{"type":"Feature","geometry":{"type":"Point","coordinates":[72.91268566100007,33.706892487000005,0,-1.7976931348623157e+308]},"properties":{"OID_":0,"Name":"Margalla View Valley, D-14","FolderPath":"Illegal Schemes zones/Illegal Schemes zones.kmz/Illegal Schemes/Zone 1/Zone-1.kmz","SymbolID":1,"AltMode":-1,"Base":0,"Snippet":"","PopupInfo":"","HasLabel":-1,"LabelID":1}},
{"type":"Feature","geometry":{"type":"Point","coordinates":[72.92964124600007,33.6199038260001,0,-1.7976931348623157e+308]},"properties":{"OID_":0,"Name":"Qamar Garden, H-15","FolderPath":"Illegal Schemes zones/Illegal Schemes zones.kmz/Illegal Schemes/Zone 1/Zone-1.kmz","SymbolID":1,"AltMode":-1,"Base":0,"Snippet":"","PopupInfo":"","HasLabel":-1,"LabelID":1}},
{"type":"Feature","geometry":{"type":"Point","coordinates":[72.91159231900019,33.67300809800014,0,-1.7976931348623157e+308]},"properties":{"OID_":0,"Name":"Shehzad Town E-14","FolderPath":"Illegal Schemes zones/Illegal Schemes zones.kmz/Illegal Schemes/Zone 1/Zone-1.kmz","SymbolID":1,"AltMode":-1,"Base":0,"Snippet":"","PopupInfo":"","HasLabel":-1,"LabelID":1}},
{"type":"Feature","geometry":{"type":"Point","coordinates":[72.91166196000017,33.60157737900016,0,-1.7976931348623157e+308]},"properties":{"OID_":0,"Name":"Zamar Valley","FolderPath":"Illegal Schemes zones/Illegal Schemes zones.kmz/Illegal Schemes/Zone 1/Zone-1.kmz","SymbolID":1,"AltMode":-1,"Base":0,"Snippet":"","PopupInfo":"","HasLabel":-1,"LabelID":1}},
{"type":"Feature","geometry":{"type":"Point","coordinates":[72.92707545400009,33.61771767400006,0,-1.7976931348623157e+308]},"properties":{"OID_":0,"Name":"Tayyab Garden","FolderPath":"Illegal Schemes zones/Illegal Schemes zones.kmz/Illegal Schemes/Zone 1/Zone-1.kmz","SymbolID":1,"AltMode":-1,"Base":0,"Snippet":"","PopupInfo":"","HasLabel":-1,"LabelID":1}},
{"type":"Feature","geometry":{"type":"Point","coordinates":[72.90322776100015,33.59992402400019,0,-1.7976931348623157e+308]},"properties":{"OID_":0,"Name":"Sherzaman Garden","FolderPath":"Illegal Schemes zones/Illegal Schemes zones.kmz/Illegal Schemes/Zone 1/Zone-1.kmz","SymbolID":1,"AltMode":-1,"Base":0,"Snippet":"","PopupInfo":"","HasLabel":-1,"LabelID":1}},
{"type":"Feature","geometry":{"type":"Point","coordinates":[72.90307014600018,33.711300380000125,0,-1.7976931348623157e+308]},"properties":{"OID_":0,"Name":"Capital Hills Residencia, D-14","FolderPath":"Illegal Schemes zones/Illegal Schemes zones.kmz/Illegal Schemes/Zone 2","SymbolID":1,"AltMode":-1,"Base":0,"Snippet":"","PopupInfo":"","HasLabel":-1,"LabelID":1}},
{"type":"Feature","geometry":{"type":"Point","coordinates":[72.89702393600015,33.635888513000054,0,-1.7976931348623157e+308]},"properties":{"OID_":0,"Name":"Pakistan Overseas Housing Scheme, Sector F-16","FolderPath":"Illegal Schemes zones/Illegal Schemes zones.kmz/Illegal Schemes/Zone 2","SymbolID":1,"AltMode":-1,"Base":0,"Snippet":"","PopupInfo":"","HasLabel":-1,"LabelID":1}},
{"type":"Feature","geometry":{"type":"Point","coordinates":[72.85304275500005,33.67060893500013,0,-1.7976931348623157e+308]},"properties":{"OID_":0,"Name":"Gulshan-Rehman Sector C-17,     D-17","FolderPath":"Illegal Schemes zones/Illegal Schemes zones.kmz/Illegal Schemes/Zone 2","SymbolID":1,"AltMode":-1,"Base":0,"Snippet":"","PopupInfo":"","HasLabel":-1,"LabelID":1}},
{"type":"Feature","geometry":{"type":"Point","coordinates":[72.90724667400008,33.65602726700013,0,-1.7976931348623157e+308]},"properties":{"OID_":0,"Name":"Jamal Akbar Colony, Tarnol Phattak","FolderPath":"Illegal Schemes zones/Illegal Schemes zones.kmz/Illegal Schemes/Zone 2","SymbolID":1,"AltMode":-1,"Base":0,"Snippet":"","PopupInfo":"","HasLabel":-1,"LabelID":1}},
{"type":"Feature","geometry":{"type":"Point","coordinates":[72.83393631000007,33.66059135400002,0,-1.7976931348623157e+308]},"properties":{"OID_":0,"Name":"Green City, Sector D-17, E-17","FolderPath":"Illegal Schemes zones/Illegal Schemes zones.kmz/Illegal Schemes/Zone 2","SymbolID":1,"AltMode":-1,"Base":0,"Snippet":"","PopupInfo":"","HasLabel":-1,"LabelID":1}},
{"type":"Feature","geometry":{"type":"Point","coordinates":[72.86346728500018,33.661849017000065,0,-1.7976931348623157e+308]},"properties":{"OID_":0,"Name":"Islamabad Co-operative Farming Scheme, Sector D-17","FolderPath":"Illegal Schemes zones/Illegal Schemes zones.kmz/Illegal Schemes/Zone 2","SymbolID":1,"AltMode":-1,"Base":0,"Snippet":"","PopupInfo":"","HasLabel":-1,"LabelID":1}},
{"type":"Feature","geometry":{"type":"Point","coordinates":[72.90565302700008,33.63397075300003,0,-1.7976931348623157e+308]},"properties":{"OID_":0,"Name":"Pakistan Town Phase-II G-16, F-16","FolderPath":"Illegal Schemes zones/Illegal Schemes zones.kmz/Illegal Schemes/Zone 2","SymbolID":1,"AltMode":-1,"Base":0,"Snippet":"","PopupInfo":"","HasLabel":-1,"LabelID":1}},
{"type":"Feature","geometry":{"type":"Point","coordinates":[73.16414643800016,33.719599626000104,0,-1.7976931348623157e+308]},"properties":{"OID_":0,"Name":"Aryan Enclave, Main Korang Road, Banni Galla.","FolderPath":"Illegal Schemes zones/Illegal Schemes zones.kmz/Illegal Schemes/schemes of zone 3.kmz/schemes of zone 3","SymbolID":1,"AltMode":-1,"Base":0,"Snippet":"","PopupInfo":"","HasLabel":-1,"LabelID":1}},
{"type":"Feature","geometry":{"type":"Point","coordinates":[73.17199690000012,33.72160050000008,0,-1.7976931348623157e+308]},"properties":{"OID_":0,"Name":"Riverside Enclave, Korang Road, Bani Gala.","FolderPath":"Illegal Schemes zones/Illegal Schemes zones.kmz/Illegal Schemes/schemes of zone 3.kmz/schemes of zone 3","SymbolID":1,"AltMode":-1,"Base":0,"Snippet":"","PopupInfo":"","HasLabel":-1,"LabelID":1}},
{"type":"Feature","geometry":{"type":"Point","coordinates":[73.16251213500004,33.70716655000007,0,-1.7976931348623157e+308]},"properties":{"OID_":0,"Name":"Khyber City, Haider Street, Bani Galla.","FolderPath":"Illegal Schemes zones/Illegal Schemes zones.kmz/Illegal Schemes/schemes of zone 3.kmz/schemes of zone 3","SymbolID":1,"AltMode":-1,"Base":0,"Snippet":"","PopupInfo":"","HasLabel":-1,"LabelID":1}},
{"type":"Feature","geometry":{"type":"Point","coordinates":[73.15466524100003,33.714812192000124,0,-1.7976931348623157e+308]},"properties":{"OID_":0,"Name":"Maple Homes, Pepsi Road, Bani Galla.","FolderPath":"Illegal Schemes zones/Illegal Schemes zones.kmz/Illegal Schemes/schemes of zone 3.kmz/schemes of zone 3","SymbolID":1,"AltMode":-1,"Base":0,"Snippet":"","PopupInfo":"","HasLabel":-1,"LabelID":1}},
{"type":"Feature","geometry":{"type":"Point","coordinates":[73.1659116890001,33.724340072000075,0,-1.7976931348623157e+308]},"properties":{"OID_":0,"Name":"Lake View Lanes, Main Korang Road, Bani Galla.","FolderPath":"Illegal Schemes zones/Illegal Schemes zones.kmz/Illegal Schemes/schemes of zone 3.kmz/schemes of zone 3","SymbolID":1,"AltMode":-1,"Base":0,"Snippet":"","PopupInfo":"","HasLabel":-1,"LabelID":1}},
{"type":"Feature","geometry":{"type":"Point","coordinates":[73.25532680200007,33.776251491000096,0,-1.7976931348623157e+308]},"properties":{"OID_":0,"Name":"Dream land enclave","FolderPath":"Illegal Schemes zones/Illegal Schemes zones.kmz/Illegal Schemes/schemes of zone 4.kmz/schemes of zone 4","SymbolID":1,"AltMode":-1,"Base":0,"Snippet":"","PopupInfo":"","HasLabel":-1,"LabelID":2}},
{"type":"Feature","geometry":{"type":"Point","coordinates":[73.30095096200012,33.80152895399999,0,-1.7976931348623157e+308]},"properties":{"OID_":0,"Name":"Commooners Sky Gardenns","FolderPath":"Illegal Schemes zones/Illegal Schemes zones.kmz/Illegal Schemes/schemes of zone 4.kmz/schemes of zone 4","SymbolID":1,"AltMode":-1,"Base":0,"Snippet":"","PopupInfo":"","HasLabel":-1,"LabelID":3}},
{"type":"Feature","geometry":{"type":"Point","coordinates":[73.32731666100017,33.663242046000164,0,-1.7976931348623157e+308]},"properties":{"OID_":0,"Name":"vista valley","FolderPath":"Illegal Schemes zones/Illegal Schemes zones.kmz/Illegal Schemes/schemes of zone 4.kmz/schemes of zone 4","SymbolID":1,"AltMode":-1,"Base":0,"Snippet":"","PopupInfo":"","HasLabel":-1,"LabelID":1}},
{"type":"Feature","geometry":{"type":"Point","coordinates":[73.22738002800003,33.724430422000125,0,-1.7976931348623157e+308]},"properties":{"OID_":0,"Name":"Adil Valley","FolderPath":"Illegal Schemes zones/Illegal Schemes zones.kmz/Illegal Schemes/schemes of zone 4.kmz/schemes of zone 4","SymbolID":1,"AltMode":-1,"Base":0,"Snippet":"","PopupInfo":"","HasLabel":-1,"LabelID":1}},
{"type":"Feature","geometry":{"type":"Point","coordinates":[73.22858652500014,33.65095931000013,0,-1.7976931348623157e+308]},"properties":{"OID_":0,"Name":"Dream Land City, Lehtrar Road Thanda Pani","FolderPath":"Illegal Schemes zones/Illegal Schemes zones.kmz/Illegal Schemes/schemes of zone 4.kmz/schemes of zone 4","SymbolID":1,"AltMode":-1,"Base":0,"Snippet":"","PopupInfo":"","HasLabel":-1,"LabelID":1}},
{"type":"Feature","geometry":{"type":"Point","coordinates":[73.20671221200007,33.65658016700007,0,-1.7976931348623157e+308]},"properties":{"OID_":0,"Name":"Galaxy Enclave / Mufti Mehmood Enclave, Lehtrar Road","FolderPath":"Illegal Schemes zones/Illegal Schemes zones.kmz/Illegal Schemes/schemes of zone 4.kmz/schemes of zone 4/Galaxy Enclave","SymbolID":1,"AltMode":-1,"Base":0,"Snippet":"","PopupInfo":"","HasLabel":-1,"LabelID":1}},
{"type":"Feature","geometry":{"type":"Point","coordinates":[73.14987829300009,33.66756638000004,0,-1.7976931348623157e+308]},"properties":{"OID_":0,"Name":"Green Avenue, Park Road","FolderPath":"Illegal Schemes zones/Illegal Schemes zones.kmz/Illegal Schemes/schemes of zone 4.kmz/schemes of zone 4","SymbolID":1,"AltMode":-1,"Base":0,"Snippet":"","PopupInfo":"","HasLabel":-1,"LabelID":1}},
{"type":"Feature","geometry":{"type":"Point","coordinates":[73.22798170300018,33.64672519700002,0,-1.7976931348623157e+308]},"properties":{"OID_":0,"Name":"Green Residencia. Lehtrar Road having head office opposite to Shaheen Town Phase-I, near Petrol Pump Jhang Syedaan","FolderPath":"Illegal Schemes zones/Illegal Schemes zones.kmz/Illegal Schemes/schemes of zone 4.kmz/schemes of zone 4","SymbolID":1,"AltMode":-1,"Base":0,"Snippet":"","PopupInfo":"","HasLabel":-1,"LabelID":1}},
{"type":"Feature","geometry":{"type":"Point","coordinates":[73.20636634500016,33.7314152510001,0,-1.7976931348623157e+308]},"properties":{"OID_":0,"Name":"Green Valley (Phase-I & II), Simly Dam Road","FolderPath":"Illegal Schemes zones/Illegal Schemes zones.kmz/Illegal Schemes/schemes of zone 4.kmz/schemes of zone 4","SymbolID":1,"AltMode":-1,"Base":0,"Snippet":"","PopupInfo":"","HasLabel":-1,"LabelID":1}},
{"type":"Feature","geometry":{"type":"Point","coordinates":[73.2318010240001,33.65209057400011,0,-1.7976931348623157e+308]},"properties":{"OID_":0,"Name":"Gulf Residencia (Phase-II), Lehtrar Road, Islamabad","FolderPath":"Illegal Schemes zones/Illegal Schemes zones.kmz/Illegal Schemes/schemes of zone 4.kmz/schemes of zone 4","SymbolID":1,"AltMode":-1,"Base":0,"Snippet":"","PopupInfo":"","HasLabel":-1,"LabelID":1}},
{"type":"Feature","geometry":{"type":"Point","coordinates":[73.23682221000007,33.653111639000144,0,-1.7976931348623157e+308]},"properties":{"OID_":0,"Name":"Gulf Residencia, Lehtrar Road","FolderPath":"Illegal Schemes zones/Illegal Schemes zones.kmz/Illegal Schemes/schemes of zone 4.kmz/schemes of zone 4","SymbolID":1,"AltMode":-1,"Base":0,"Snippet":"","PopupInfo":"","HasLabel":-1,"LabelID":1}},
{"type":"Feature","geometry":{"type":"Point","coordinates":[73.32742183900018,33.6637576710001,0,-1.7976931348623157e+308]},"properties":{"OID_":0,"Name":"Gulshan Valley By M/s Vista Valley, Thanda Pani, Lehtrar Road, Islamabad","FolderPath":"Illegal Schemes zones/Illegal Schemes zones.kmz/Illegal Schemes/schemes of zone 4.kmz/schemes of zone 4/Gulshan Valley By M","SymbolID":1,"AltMode":-1,"Base":0,"Snippet":"","PopupInfo":"","HasLabel":-1,"LabelID":1}},
{"type":"Feature","geometry":{"type":"Point","coordinates":[73.16519464200019,33.64425080200016,0,-1.7976931348623157e+308]},"properties":{"OID_":0,"Name":"Haji Asif Society, Nilore, Lehtrar Road, Islamabad","FolderPath":"Illegal Schemes zones/Illegal Schemes zones.kmz/Illegal Schemes/schemes of zone 4.kmz/schemes of zone 4","SymbolID":1,"AltMode":-1,"Base":0,"Snippet":"","PopupInfo":"","HasLabel":-1,"LabelID":1}},
{"type":"Feature","geometry":{"type":"Point","coordinates":[73.17343735300017,33.66656234699997,0,-1.7976931348623157e+308]},"properties":{"OID_":0,"Name":"Ideal Residencia, near Park Enclave, Kurri","FolderPath":"Illegal Schemes zones/Illegal Schemes zones.kmz/Illegal Schemes/schemes of zone 4.kmz/schemes of zone 4","SymbolID":1,"AltMode":-1,"Base":0,"Snippet":"","PopupInfo":"","HasLabel":-1,"LabelID":1}},
{"type":"Feature","geometry":{"type":"Point","coordinates":[73.21889626500001,33.635015810000084,0,-1.7976931348623157e+308]},"properties":{"OID_":0,"Name":"Ittefaq Town, Old Kirpa Road, Lehtrar Road","FolderPath":"Illegal Schemes zones/Illegal Schemes zones.kmz/Illegal Schemes/schemes of zone 4.kmz/schemes of zone 4","SymbolID":1,"AltMode":-1,"Base":0,"Snippet":"","PopupInfo":"","HasLabel":-1,"LabelID":4}},
{"type":"Feature","geometry":{"type":"Point","coordinates":[73.19984162800006,33.72777277299997,0,-1.7976931348623157e+308]},"properties":{"OID_":0,"Name":"Doctor's Enclave, Simly Dam Road","FolderPath":"Illegal Schemes zones/Illegal Schemes zones.kmz/Illegal Schemes/schemes of zone 4.kmz/schemes of zone 4","SymbolID":1,"AltMode":-1,"Base":0,"Snippet":"","PopupInfo":"","HasLabel":-1,"LabelID":1}},
{"type":"Feature","geometry":{"type":"Point","coordinates":[73.17553336900005,33.72081818600003,0,-1.7976931348623157e+308]},"properties":{"OID_":0,"Name":"Land Sub-Division Sponsored by Mr. Shahzad, Sanjania Road opposite Beaconhouse Newlands, Banni Galla","FolderPath":"Illegal Schemes zones/Illegal Schemes zones.kmz/Illegal Schemes/schemes of zone 4.kmz/schemes of zone 4","SymbolID":1,"AltMode":-1,"Base":0,"Snippet":"","PopupInfo":"","HasLabel":-1,"LabelID":1}},
{"type":"Feature","geometry":{"type":"Point","coordinates":[73.27023311500005,33.66883197100003,0,-1.7976931348623157e+308]},"properties":{"OID_":0,"Name":"Madina Enclave, Phase-I, located at Lehtrar, Simly Dam link road, Zone-4(d), Islamabad","FolderPath":"Illegal Schemes zones/Illegal Schemes zones.kmz/Illegal Schemes/schemes of zone 4.kmz/schemes of zone 4","SymbolID":1,"AltMode":-1,"Base":0,"Snippet":"","PopupInfo":"","HasLabel":-1,"LabelID":5}},
{"type":"Feature","geometry":{"type":"Point","coordinates":[73.2190032200001,33.64907970500013,0,-1.7976931348623157e+308]},"properties":{"OID_":0,"Name":"Makkah Town, HurnoMakkah Town, Hurno Thanda Pani, Lehtrar Road Thanda Pani, Lehtrar Road","FolderPath":"Illegal Schemes zones/Illegal Schemes zones.kmz/Illegal Schemes/schemes of zone 4.kmz/schemes of zone 4","SymbolID":1,"AltMode":-1,"Base":0,"Snippet":"","PopupInfo":"","HasLabel":-1,"LabelID":1}},
{"type":"Feature","geometry":{"type":"Point","coordinates":[73.15637858200012,33.65739367700007,0,-1.7976931348623157e+308]},"properties":{"OID_":0,"Name":"Meharban Colony, Park Road, Islamabad","FolderPath":"Illegal Schemes zones/Illegal Schemes zones.kmz/Illegal Schemes/schemes of zone 4.kmz/schemes of zone 4","SymbolID":1,"AltMode":-1,"Base":0,"Snippet":"","PopupInfo":"","HasLabel":-1,"LabelID":6}},
{"type":"Feature","geometry":{"type":"Point","coordinates":[73.20685278200017,33.656549547,0,-1.7976931348623157e+308]},"properties":{"OID_":0,"Name":"Mufti Mehmood Enclave, Lehtrar Road","FolderPath":"Illegal Schemes zones/Illegal Schemes zones.kmz/Illegal Schemes/schemes of zone 4.kmz/schemes of zone 4","SymbolID":1,"AltMode":-1,"Base":0,"Snippet":"","PopupInfo":"","HasLabel":-1,"LabelID":1}},
{"type":"Feature","geometry":{"type":"Point","coordinates":[73.15037384300007,33.62853892500004,0,-1.7976931348623157e+308]},"properties":{"OID_":0,"Name":"Mughal Enclave, Nilore, Lehtrar Road, Islamabad","FolderPath":"Illegal Schemes zones/Illegal Schemes zones.kmz/Illegal Schemes/schemes of zone 4.kmz/schemes of zone 4","SymbolID":1,"AltMode":-1,"Base":0,"Snippet":"","PopupInfo":"","HasLabel":-1,"LabelID":1}},
{"type":"Feature","geometry":{"type":"Point","coordinates":[73.2416706460001,33.65359929200008,0,-1.7976931348623157e+308]},"properties":{"OID_":0,"Name":"Mustafa Town, Lehtrar Road, Islamabad","FolderPath":"Illegal Schemes zones/Illegal Schemes zones.kmz/Illegal Schemes/schemes of zone 4.kmz/schemes of zone 4","SymbolID":1,"AltMode":-1,"Base":0,"Snippet":"","PopupInfo":"","HasLabel":-1,"LabelID":1}},
{"type":"Feature","geometry":{"type":"Point","coordinates":[73.15431020000005,33.647626100000025,0,-1.7976931348623157e+308]},"properties":{"OID_":0,"Name":"New University Town (near COMSATS), Park Road","FolderPath":"Illegal Schemes zones/Illegal Schemes zones.kmz/Illegal Schemes/schemes of zone 4.kmz/schemes of zone 4","SymbolID":1,"AltMode":-1,"Base":0,"Snippet":"","PopupInfo":"","HasLabel":-1,"LabelID":7}},
{"type":"Feature","geometry":{"type":"Point","coordinates":[73.24160354900016,33.65340554400001,0,-1.7976931348623157e+308]},"properties":{"OID_":0,"Name":"Nilore Greens, Nilore, Lehtrar Road, Islamabad","FolderPath":"Illegal Schemes zones/Illegal Schemes zones.kmz/Illegal Schemes/schemes of zone 4.kmz/schemes of zone 4","SymbolID":1,"AltMode":-1,"Base":0,"Snippet":"","PopupInfo":"","HasLabel":-1,"LabelID":1}},
{"type":"Feature","geometry":{"type":"Point","coordinates":[73.26818436500014,33.698048912000104,0,-1.7976931348623157e+308]},"properties":{"OID_":0,"Name":"Olive Wood Farms, Simly Dam Road","FolderPath":"Illegal Schemes zones/Illegal Schemes zones.kmz/Illegal Schemes/schemes of zone 4.kmz/schemes of zone 4","SymbolID":1,"AltMode":-1,"Base":0,"Snippet":"","PopupInfo":"","HasLabel":-1,"LabelID":8}},
{"type":"Feature","geometry":{"type":"Point","coordinates":[73.24664247300018,33.66035972200007,0,-1.7976931348623157e+308]},"properties":{"OID_":0,"Name":"Paradise Enclave (Phase-II), Nilore, Lehtrar Road, Islamabad","FolderPath":"Illegal Schemes zones/Illegal Schemes zones.kmz/Illegal Schemes/schemes of zone 4.kmz/schemes of zone 4","SymbolID":1,"AltMode":-1,"Base":0,"Snippet":"","PopupInfo":"","HasLabel":-1,"LabelID":9}},
{"type":"Feature","geometry":{"type":"Point","coordinates":[73.20186919800011,33.65441577000013,0,-1.7976931348623157e+308]},"properties":{"OID_":0,"Name":"Paradise Point Housing Scheme, Lehtrar Road, Islamabad","FolderPath":"Illegal Schemes zones/Illegal Schemes zones.kmz/Illegal Schemes/schemes of zone 4.kmz/schemes of zone 4","SymbolID":1,"AltMode":-1,"Base":0,"Snippet":"","PopupInfo":"","HasLabel":-1,"LabelID":10}},
{"type":"Feature","geometry":{"type":"Point","coordinates":[73.19678910699997,33.74092402500008,0,-1.7976931348623157e+308]},"properties":{"OID_":0,"Name":"PTV Colony, Simly Dam Road","FolderPath":"Illegal Schemes zones/Illegal Schemes zones.kmz/Illegal Schemes/schemes of zone 4.kmz/schemes of zone 4","SymbolID":1,"AltMode":-1,"Base":0,"Snippet":"","PopupInfo":"","HasLabel":-1,"LabelID":11}},
{"type":"Feature","geometry":{"type":"Point","coordinates":[73.12686499400013,33.62979981600017,0,-1.7976931348623157e+308]},"properties":{"OID_":0,"Name":"Qurtabal Town, Islamabad Highway","FolderPath":"Illegal Schemes zones/Illegal Schemes zones.kmz/Illegal Schemes/schemes of zone 4.kmz/schemes of zone 4","SymbolID":1,"AltMode":-1,"Base":0,"Snippet":"","PopupInfo":"","HasLabel":-1,"LabelID":12}},
{"type":"Feature","geometry":{"type":"Point","coordinates":[73.17550645400007,33.67599620499999,0,-1.7976931348623157e+308]},"properties":{"OID_":0,"Name":"Rawal Enclave, Kurri Road","FolderPath":"Illegal Schemes zones/Illegal Schemes zones.kmz/Illegal Schemes/schemes of zone 4.kmz/schemes of zone 4","SymbolID":1,"AltMode":-1,"Base":0,"Snippet":"","PopupInfo":"","HasLabel":-1,"LabelID":1}},
{"type":"Feature","geometry":{"type":"Point","coordinates":[73.26712576200003,33.66828780700013,0,-1.7976931348623157e+308]},"properties":{"OID_":0,"Name":"Rawal Enclave, Phase-III, Lethrar Road, Tumair, Islamabad. Head Office: Heaven Street Near Head Start School, Kurri Road, Islamabad","FolderPath":"Illegal Schemes zones/Illegal Schemes zones.kmz/Illegal Schemes/schemes of zone 4.kmz/schemes of zone 4","SymbolID":1,"AltMode":-1,"Base":0,"Snippet":"","PopupInfo":"","HasLabel":-1,"LabelID":1}},
{"type":"Feature","geometry":{"type":"Point","coordinates":[73.24565420000005,33.66405240000006,0,-1.7976931348623157e+308]},"properties":{"OID_":0,"Name":"Qureshi Town, Nilore, Lehtrar Road, Islamabad","FolderPath":"Illegal Schemes zones/Illegal Schemes zones.kmz/Illegal Schemes/schemes of zone 4.kmz/schemes of zone 4","SymbolID":1,"AltMode":-1,"Base":0,"Snippet":"","PopupInfo":"","HasLabel":-1,"LabelID":1}},
{"type":"Feature","geometry":{"type":"Point","coordinates":[73.2108236270002,33.63773132100016,0,-1.7976931348623157e+308]},"properties":{"OID_":0,"Name":"Sadaat Town, Thanda Pani, Lehtrar Road, Islamabad","FolderPath":"Illegal Schemes zones/Illegal Schemes zones.kmz/Illegal Schemes/schemes of zone 4.kmz/schemes of zone 4","SymbolID":1,"AltMode":-1,"Base":0,"Snippet":"","PopupInfo":"","HasLabel":-1,"LabelID":1}},
{"type":"Feature","geometry":{"type":"Point","coordinates":[73.20608141500003,33.624923480999996,0,-1.7976931348623157e+308]},"properties":{"OID_":0,"Name":"Satti Town, Lehtrar Road","FolderPath":"Illegal Schemes zones/Illegal Schemes zones.kmz/Illegal Schemes/schemes of zone 4.kmz/schemes of zone 4","SymbolID":1,"AltMode":-1,"Base":0,"Snippet":"","PopupInfo":"","HasLabel":-1,"LabelID":1}},
{"type":"Feature","geometry":{"type":"Point","coordinates":[73.22007780600018,33.73214345400004,0,-1.7976931348623157e+308]},"properties":{"OID_":0,"Name":"Shaheen Farms, Simly Dam Road","FolderPath":"Illegal Schemes zones/Illegal Schemes zones.kmz/Illegal Schemes/schemes of zone 4.kmz/schemes of zone 4","SymbolID":1,"AltMode":-1,"Base":0,"Snippet":"","PopupInfo":"","HasLabel":-1,"LabelID":13}},
{"type":"Feature","geometry":{"type":"Point","coordinates":[73.17567746700007,33.72074659800012,0,-1.7976931348623157e+308]},"properties":{"OID_":0,"Name":"Small Scale Housing Project developed by Mr. Shahzad, Sanjania Road opposite Beaconhouse Newlands, Banni Galla","FolderPath":"Illegal Schemes zones/Illegal Schemes zones.kmz/Illegal Schemes/schemes of zone 4.kmz/schemes of zone 4","SymbolID":1,"AltMode":-1,"Base":0,"Snippet":"","PopupInfo":"","HasLabel":-1,"LabelID":1}},
{"type":"Feature","geometry":{"type":"Point","coordinates":[73.19469891700004,33.72567759600008,0,-1.7976931348623157e+308]},"properties":{"OID_":0,"Name":"Spring Valley, Simly Dam Road","FolderPath":"Illegal Schemes zones/Illegal Schemes zones.kmz/Illegal Schemes/schemes of zone 4.kmz/schemes of zone 4","SymbolID":1,"AltMode":-1,"Base":0,"Snippet":"","PopupInfo":"","HasLabel":-1,"LabelID":14}},
{"type":"Feature","geometry":{"type":"Point","coordinates":[73.20801771300017,33.73333240900007,0,-1.7976931348623157e+308]},"properties":{"OID_":0,"Name":"Suffa Valley, Gala View Road, Islamabad","FolderPath":"Illegal Schemes zones/Illegal Schemes zones.kmz/Illegal Schemes/schemes of zone 4.kmz/schemes of zone 4","SymbolID":1,"AltMode":-1,"Base":0,"Snippet":"","PopupInfo":"","HasLabel":-1,"LabelID":15}},
{"type":"Feature","geometry":{"type":"Point","coordinates":[73.3274018510001,33.663801548000094,0,-1.7976931348623157e+308]},"properties":{"OID_":0,"Name":"Vista Valley, Lehtrar Road","FolderPath":"Illegal Schemes zones/Illegal Schemes zones.kmz/Illegal Schemes/schemes of zone 4.kmz/schemes of zone 4","SymbolID":1,"AltMode":-1,"Base":0,"Snippet":"","PopupInfo":"","HasLabel":-1,"LabelID":1}},
{"type":"Feature","geometry":{"type":"Point","coordinates":[73.20456494900014,33.72743342000007,0,-1.7976931348623157e+308]},"properties":{"OID_":0,"Name":"Yaar Muhammad, Bani Gala","FolderPath":"Illegal Schemes zones/Illegal Schemes zones.kmz/Illegal Schemes/schemes of zone 4.kmz/schemes of zone 4","SymbolID":1,"AltMode":-1,"Base":0,"Snippet":"","PopupInfo":"","HasLabel":-1,"LabelID":16}},
{"type":"Feature","geometry":{"type":"Point","coordinates":[73.20498545000004,33.65646598000012,0,-1.7976931348623157e+308]},"properties":{"OID_":0,"Name":"University Enclave Near Farsh Town","FolderPath":"Illegal Schemes zones/Illegal Schemes zones.kmz/Illegal Schemes/schemes of zone 4.kmz/schemes of zone 4","SymbolID":1,"AltMode":-1,"Base":0,"Snippet":"","PopupInfo":"","HasLabel":-1,"LabelID":1}},
{"type":"Feature","geometry":{"type":"Point","coordinates":[73.19635130400007,33.724998909000135,0,-1.7976931348623157e+308]},"properties":{"OID_":0,"Name":"Safari Gardens M/s Capital properties.","FolderPath":"Illegal Schemes zones/Illegal Schemes zones.kmz/Illegal Schemes/schemes of zone 4.kmz/schemes of zone 4/Safari Gardens M","SymbolID":1,"AltMode":-1,"Base":0,"Snippet":"","PopupInfo":"","HasLabel":-1,"LabelID":1}},
{"type":"Feature","geometry":{"type":"Point","coordinates":[73.224438346,33.742475515000024,0,-1.7976931348623157e+308]},"properties":{"OID_":0,"Name":"Country Farms","FolderPath":"Illegal Schemes zones/Illegal Schemes zones.kmz/Illegal Schemes/schemes of zone 4.kmz/schemes of zone 4","SymbolID":1,"AltMode":-1,"Base":0,"Snippet":"","PopupInfo":"","HasLabel":-1,"LabelID":17}},
{"type":"Feature","geometry":{"type":"Point","coordinates":[73.14068662700004,33.61047838400003,0,-1.7976931348623157e+308]},"properties":{"OID_":0,"Name":"Islamabad Green Paradise SMC Pvt Ltd.","FolderPath":"Illegal Schemes zones/Illegal Schemes zones.kmz/Illegal Schemes/schemes of zone 4.kmz/schemes of zone 4","SymbolID":1,"AltMode":-1,"Base":0,"Snippet":"","PopupInfo":"","HasLabel":-1,"LabelID":5}},
{"type":"Feature","geometry":{"type":"Point","coordinates":[73.21856400400014,33.64495268000019,0,-1.7976931348623157e+308]},"properties":{"OID_":0,"Name":"Shadab Town","FolderPath":"Illegal Schemes zones/Illegal Schemes zones.kmz/Illegal Schemes/schemes of zone 4.kmz/schemes of zone 4","SymbolID":1,"AltMode":-1,"Base":0,"Snippet":"","PopupInfo":"","HasLabel":-1,"LabelID":2}},
{"type":"Feature","geometry":{"type":"Point","coordinates":[73.12332681900006,33.628161105000004,0,-1.7976931348623157e+308]},"properties":{"OID_":0,"Name":"Madina Town","FolderPath":"Illegal Schemes zones/Illegal Schemes zones.kmz/Illegal Schemes/schemes of zone 4.kmz/schemes of zone 4","SymbolID":1,"AltMode":-1,"Base":0,"Snippet":"","PopupInfo":"","HasLabel":-1,"LabelID":12}},
{"type":"Feature","geometry":{"type":"Point","coordinates":[73.27219102500004,33.67197004500014,0,-1.7976931348623157e+308]},"properties":{"OID_":0,"Name":"Al-Amin Gardens, Nilore, Lehtrar Road, Islamabad","FolderPath":"Illegal Schemes zones/Illegal Schemes zones.kmz/Illegal Schemes/schemes of zone 4.kmz/schemes of zone 4","SymbolID":1,"AltMode":-1,"Base":0,"Snippet":"","PopupInfo":"","HasLabel":-1,"LabelID":9}},
{"type":"Feature","geometry":{"type":"Point","coordinates":[73.26804475300014,33.67116899500013,0,-1.7976931348623157e+308]},"properties":{"OID_":0,"Name":"Al-Rehman City View, Lehtrar Road, near PINSTECH, Nilore","FolderPath":"Illegal Schemes zones/Illegal Schemes zones.kmz/Illegal Schemes/schemes of zone 4.kmz/schemes of zone 4","SymbolID":1,"AltMode":-1,"Base":0,"Snippet":"","PopupInfo":"","HasLabel":-1,"LabelID":1}},
{"type":"Feature","geometry":{"type":"Point","coordinates":[73.15682111100006,33.6557184560001,0,-1.7976931348623157e+308]},"properties":{"OID_":0,"Name":"Al-Syed Avenue, Park Road","FolderPath":"Illegal Schemes zones/Illegal Schemes zones.kmz/Illegal Schemes/schemes of zone 4.kmz/schemes of zone 4","SymbolID":1,"AltMode":-1,"Base":0,"Snippet":"","PopupInfo":"","HasLabel":-1,"LabelID":17}},
{"type":"Feature","geometry":{"type":"Point","coordinates":[73.21248945600007,33.69864467999997,0,-1.7976931348623157e+308]},"properties":{"OID_":0,"Name":"Ameer Khan Enclave, Mallah Road, near Bahria Enclave-I","FolderPath":"Illegal Schemes zones/Illegal Schemes zones.kmz/Illegal Schemes/schemes of zone 4.kmz/schemes of zone 4","SymbolID":1,"AltMode":-1,"Base":0,"Snippet":"","PopupInfo":"","HasLabel":-1,"LabelID":18}},
{"type":"Feature","geometry":{"type":"Point","coordinates":[73.21379819300012,33.64326558800019,0,-1.7976931348623157e+308]},"properties":{"OID_":0,"Name":"Arslan Town, Lehtrar Road, adjacent to Alhamra Hills","FolderPath":"Illegal Schemes zones/Illegal Schemes zones.kmz/Illegal Schemes/schemes of zone 4.kmz/schemes of zone 4","SymbolID":1,"AltMode":-1,"Base":0,"Snippet":"","PopupInfo":"","HasLabel":-1,"LabelID":19}},
{"type":"Feature","geometry":{"type":"Point","coordinates":[73.26191220800018,33.666018317000066,0,-1.7976931348623157e+308]},"properties":{"OID_":0,"Name":"Asian Ranches Villas, located at Lehtrar, Simly Dam link road Zone-4(D), Islamabad","FolderPath":"Illegal Schemes zones/Illegal Schemes zones.kmz/Illegal Schemes/schemes of zone 4.kmz/schemes of zone 4","SymbolID":1,"AltMode":-1,"Base":0,"Snippet":"","PopupInfo":"","HasLabel":-1,"LabelID":1}},
{"type":"Feature","geometry":{"type":"Point","coordinates":[73.1674668280001,33.70151443600014,0,-1.7976931348623157e+308]},"properties":{"OID_":0,"Name":"Babar Enclave, Mura Noor","FolderPath":"Illegal Schemes zones/Illegal Schemes zones.kmz/Illegal Schemes/schemes of zone 4.kmz/schemes of zone 4","SymbolID":1,"AltMode":-1,"Base":0,"Snippet":"","PopupInfo":"","HasLabel":-1,"LabelID":1}},
{"type":"Feature","geometry":{"type":"Point","coordinates":[73.2206939890001,33.72902581400018,0,-1.7976931348623157e+308]},"properties":{"OID_":0,"Name":"Badar Farms, Simly Dam Road","FolderPath":"Illegal Schemes zones/Illegal Schemes zones.kmz/Illegal Schemes/schemes of zone 4.kmz/schemes of zone 4","SymbolID":1,"AltMode":-1,"Base":0,"Snippet":"","PopupInfo":"","HasLabel":-1,"LabelID":20}},
{"type":"Feature","geometry":{"type":"Point","coordinates":[73.19457450000016,33.72401170000012,0,-1.7976931348623157e+308]},"properties":{"OID_":0,"Name":"Bani Gala Hill View, situated at Hill View Road, Bani Gala, Zone-4, Islamabad","FolderPath":"Illegal Schemes zones/Illegal Schemes zones.kmz/Illegal Schemes/schemes of zone 4.kmz/schemes of zone 4","SymbolID":1,"AltMode":-1,"Base":0,"Snippet":"","PopupInfo":"","HasLabel":-1,"LabelID":1}},
{"type":"Feature","geometry":{"type":"Point","coordinates":[73.26322278900017,33.66822551100012,0,-1.7976931348623157e+308]},"properties":{"OID_":0,"Name":"Blue Enclave / Star Home, located at Lehtrar, Simly Dam link road, Zone-4(d), Islamabad","FolderPath":"Illegal Schemes zones/Illegal Schemes zones.kmz/Illegal Schemes/schemes of zone 4.kmz/schemes of zone 4/Blue Enclave","SymbolID":1,"AltMode":-1,"Base":0,"Snippet":"","PopupInfo":"","HasLabel":-1,"LabelID":1}},
{"type":"Feature","geometry":{"type":"Point","coordinates":[73.129043857,33.640499037000154,0,-1.7976931348623157e+308]},"properties":{"OID_":0,"Name":"Burma Town, Lehtrar Road","FolderPath":"Illegal Schemes zones/Illegal Schemes zones.kmz/Illegal Schemes/schemes of zone 4.kmz/schemes of zone 4","SymbolID":1,"AltMode":-1,"Base":0,"Snippet":"","PopupInfo":"","HasLabel":-1,"LabelID":1}},
{"type":"Feature","geometry":{"type":"Point","coordinates":[73.21930193500003,33.64887800900016,0,-1.7976931348623157e+308]},"properties":{"OID_":0,"Name":"Capital Gardens, Lehtrar Road","FolderPath":"Illegal Schemes zones/Illegal Schemes zones.kmz/Illegal Schemes/schemes of zone 4.kmz/schemes of zone 4","SymbolID":1,"AltMode":-1,"Base":0,"Snippet":"","PopupInfo":"","HasLabel":-1,"LabelID":1}},
{"type":"Feature","geometry":{"type":"Point","coordinates":[73.1414529860001,33.6245210030001,0,-1.7976931348623157e+308]},"properties":{"OID_":0,"Name":"Ghouri Gardens, Lehtrar Road","FolderPath":"Illegal Schemes zones/Illegal Schemes zones.kmz/Illegal Schemes/schemes of zone 4.kmz/schemes of zone 4","SymbolID":1,"AltMode":-1,"Base":0,"Snippet":"","PopupInfo":"","HasLabel":-1,"LabelID":21}},
{"type":"Feature","geometry":{"type":"Point","coordinates":[73.14979616700003,33.61981139800008,0,-1.7976931348623157e+308]},"properties":{"OID_":0,"Name":"Ghouri Town (All Phases in Zone-4), Islamabad Expressway","FolderPath":"Illegal Schemes zones/Illegal Schemes zones.kmz/Illegal Schemes/schemes of zone 4.kmz/schemes of zone 4","SymbolID":1,"AltMode":-1,"Base":0,"Snippet":"","PopupInfo":"","HasLabel":-1,"LabelID":22}},
{"type":"Feature","geometry":{"type":"Point","coordinates":[73.21884696600011,33.653396936000036,0,-1.7976931348623157e+308]},"properties":{"OID_":0,"Name":"Royal Homes Residencia, Lehtrar Road","FolderPath":"Illegal Schemes zones/Illegal Schemes zones.kmz/Illegal Schemes/schemes of zone 4.kmz/schemes of zone 4","SymbolID":1,"AltMode":-1,"Base":0,"Snippet":"","PopupInfo":"","HasLabel":-1,"LabelID":1}},
{"type":"Feature","geometry":{"type":"Point","coordinates":[73.1687787690002,33.68310838000008,0,-1.7976931348623157e+308]},"properties":{"OID_":0,"Name":"Abdullah Gardens, Kurri Road","FolderPath":"Illegal Schemes zones/Illegal Schemes zones.kmz/Illegal Schemes/schemes of zone 4.kmz/schemes of zone 4","SymbolID":1,"AltMode":-1,"Base":0,"Snippet":"","PopupInfo":"","HasLabel":-1,"LabelID":23}},
{"type":"Feature","geometry":{"type":"Point","coordinates":[73.14209146399998,33.699717312000075,0,-1.7976931348623157e+308]},"properties":{"OID_":0,"Name":"Adil Farms, Simly Dam Road","FolderPath":"Illegal Schemes zones/Illegal Schemes zones.kmz/Illegal Schemes/schemes of zone 4.kmz/schemes of zone 4","SymbolID":1,"AltMode":-1,"Base":0,"Snippet":"","PopupInfo":"","HasLabel":-1,"LabelID":1}},
{"type":"Feature","geometry":{"type":"Point","coordinates":[73.17106820100008,33.68743538200016,0,-1.7976931348623157e+308]},"properties":{"OID_":0,"Name":"Green Avenue-II, Kuri Road","FolderPath":"Illegal Schemes zones/Illegal Schemes zones.kmz/Illegal Schemes/schemes of zone 4.kmz/schemes of zone 4","SymbolID":1,"AltMode":-1,"Base":0,"Snippet":"","PopupInfo":"","HasLabel":-1,"LabelID":1}},
{"type":"Feature","geometry":{"type":"Point","coordinates":[73.31052355700018,33.68093565100014,0,-1.7976931348623157e+308]},"properties":{"OID_":0,"Name":"Green Valley, Karor Road, Pehont, near Quran Complex, Zone-4(D), Islamabad sponsored by Raja Nasir & Ch. Amjad","FolderPath":"Illegal Schemes zones/Illegal Schemes zones.kmz/Illegal Schemes/schemes of zone 4.kmz/schemes of zone 4","SymbolID":1,"AltMode":-1,"Base":0,"Snippet":"","PopupInfo":"","HasLabel":-1,"LabelID":7}},
{"type":"Feature","geometry":{"type":"Point","coordinates":[73.16283056100008,33.62588072400007,0,-1.7976931348623157e+308]},"properties":{"OID_":0,"Name":"Marwa Town, Islamabad Highway","FolderPath":"Illegal Schemes zones/Illegal Schemes zones.kmz/Illegal Schemes/schemes of zone 4.kmz/schemes of zone 4","SymbolID":1,"AltMode":-1,"Base":0,"Snippet":"","PopupInfo":"","HasLabel":-1,"LabelID":5}},
{"type":"Feature","geometry":{"type":"Point","coordinates":[73.23521491700001,33.65059804500015,0,-1.7976931348623157e+308]},"properties":{"OID_":0,"Name":"Royal City/Royal Villas (near PINSTECH, Nilore), Lehtrar Road","FolderPath":"Illegal Schemes zones/Illegal Schemes zones.kmz/Illegal Schemes/schemes of zone 4.kmz/schemes of zone 4/Royal City","SymbolID":1,"AltMode":-1,"Base":0,"Snippet":"","PopupInfo":"","HasLabel":-1,"LabelID":1}},
{"type":"Feature","geometry":{"type":"Point","coordinates":[73.21173936400004,33.633101189,0,-1.7976931348623157e+308]},"properties":{"OID_":0,"Name":"Al-Huda Town, Lehtrar Road","FolderPath":"Illegal Schemes zones/Illegal Schemes zones.kmz/Illegal Schemes/schemes of zone 4.kmz/schemes of zone 4","SymbolID":1,"AltMode":-1,"Base":0,"Snippet":"","PopupInfo":"","HasLabel":-1,"LabelID":24}},
{"type":"Feature","geometry":{"type":"Point","coordinates":[73.23068972600015,33.734917008000025,0,-1.7976931348623157e+308]},"properties":{"OID_":0,"Name":"green fields","FolderPath":"Illegal Schemes zones/Illegal Schemes zones.kmz/Illegal Schemes/schemes of zone 4.kmz/schemes of zone 4","SymbolID":1,"AltMode":-1,"Base":0,"Snippet":"","PopupInfo":"","HasLabel":-1,"LabelID":25}},
{"type":"Feature","geometry":{"type":"Point","coordinates":[73.13209977700006,33.6284721880001,0,-1.7976931348623157e+308]},"properties":{"OID_":0,"Name":"AL-Rehman Enclave","FolderPath":"Illegal Schemes zones/Illegal Schemes zones.kmz/Illegal Schemes/schemes of zone 4.kmz/schemes of zone 4","SymbolID":1,"AltMode":-1,"Base":0,"Snippet":"","PopupInfo":"","HasLabel":-1,"LabelID":8}},
{"type":"Feature","geometry":{"type":"Point","coordinates":[73.21755264000012,33.64021076600005,0,-1.7976931348623157e+308]},"properties":{"OID_":0,"Name":"SHAHEEN TOWN","FolderPath":"Illegal Schemes zones/Illegal Schemes zones.kmz/Illegal Schemes/schemes of zone 4.kmz/schemes of zone 4","SymbolID":1,"AltMode":-1,"Base":0,"Snippet":"","PopupInfo":"","HasLabel":-1,"LabelID":26}},
{"type":"Feature","geometry":{"type":"Point","coordinates":[73.20324030200004,33.739753687000075,0,-1.7976931348623157e+308]},"properties":{"OID_":0,"Name":"Muslim Town, Simly Dam Road","FolderPath":"Illegal Schemes zones/Illegal Schemes zones.kmz/Illegal Schemes/schemes of zone 4.kmz/schemes of zone 4","SymbolID":1,"AltMode":-1,"Base":0,"Snippet":"","PopupInfo":"","HasLabel":-1,"LabelID":27}},
{"type":"Feature","geometry":{"type":"Point","coordinates":[73.20965474000019,33.73764406700013,0,-1.7976931348623157e+308]},"properties":{"OID_":0,"Name":"Simly Valley","FolderPath":"Illegal Schemes zones/Illegal Schemes zones.kmz/Illegal Schemes/schemes of zone 4.kmz/schemes of zone 4","SymbolID":1,"AltMode":-1,"Base":0,"Snippet":"","PopupInfo":"","HasLabel":-1,"LabelID":18}},
{"type":"Feature","geometry":{"type":"Point","coordinates":[73.29780776400008,33.65812772700019,0,-1.7976931348623157e+308]},"properties":{"OID_":0,"Name":"Kohsaar Enclave, Jandala Road, near Naval Farms Simly Dam Road","FolderPath":"Illegal Schemes zones/Illegal Schemes zones.kmz/Illegal Schemes/schemes of zone 4.kmz/schemes of zone 4","SymbolID":1,"AltMode":-1,"Base":0,"Snippet":"","PopupInfo":"","HasLabel":-1,"LabelID":28}},
{"type":"Feature","geometry":{"type":"Point","coordinates":[73.1888672500001,33.74130790700008,0,-1.7976931348623157e+308]},"properties":{"OID_":0,"Name":"Makkah Town, Hurno Thanda Pani, Lehtrar Road","FolderPath":"Illegal Schemes zones/Illegal Schemes zones.kmz/Illegal Schemes/schemes of zone 4.kmz/schemes of zone 4","SymbolID":1,"AltMode":-1,"Base":0,"Snippet":"","PopupInfo":"","HasLabel":-1,"LabelID":29}},
{"type":"Feature","geometry":{"type":"Point","coordinates":[73.18527258500012,33.7394325680001,0,-1.7976931348623157e+308]},"properties":{"OID_":0,"Name":"Muslim Town","FolderPath":"Illegal Schemes zones/Illegal Schemes zones.kmz/Illegal Schemes/schemes of zone 4.kmz/schemes of zone 4","SymbolID":1,"AltMode":-1,"Base":0,"Snippet":"","PopupInfo":"","HasLabel":-1,"LabelID":30}},
{"type":"Feature","geometry":{"type":"Point","coordinates":[73.17043373100017,33.64648198000003,0,-1.7976931348623157e+308]},"properties":{"OID_":0,"Name":"GULBERG TOWN","FolderPath":"Illegal Schemes zones/Illegal Schemes zones.kmz/Illegal Schemes/schemes of zone 4.kmz/schemes of zone 4","SymbolID":1,"AltMode":-1,"Base":0,"Snippet":"","PopupInfo":"","HasLabel":-1,"LabelID":7}},
{"type":"Feature","geometry":{"type":"Point","coordinates":[73.15379530500019,33.592845495999995,0,-1.7976931348623157e+308]},"properties":{"OID_":0,"Name":"J&K Farms, Islamabad Highway","FolderPath":"Illegal Schemes zones/Illegal Schemes zones.kmz/Illegal Schemes/schemes of zone 4.kmz/schemes of zone 4","SymbolID":1,"AltMode":-1,"Base":0,"Snippet":"","PopupInfo":"","HasLabel":-1,"LabelID":7}},
{"type":"Feature","geometry":{"type":"Point","coordinates":[73.27996606000005,33.662545144000035,0,-1.7976931348623157e+308]},"properties":{"OID_":0,"Name":"GULF RESIDENCIA","FolderPath":"Illegal Schemes zones/Illegal Schemes zones.kmz/Illegal Schemes/schemes of zone 4.kmz/schemes of zone 4","SymbolID":1,"AltMode":-1,"Base":0,"Snippet":"","PopupInfo":"","HasLabel":-1,"LabelID":7}},
{"type":"Feature","geometry":{"type":"Point","coordinates":[73.27532258900015,33.66985897600017,0,-1.7976931348623157e+308]},"properties":{"OID_":0,"Name":"Al-Rehman City View, Lehtrar Road, near PINSTECH, Nilore","FolderPath":"Illegal Schemes zones/Illegal Schemes zones.kmz/Illegal Schemes/schemes of zone 4.kmz/schemes of zone 4","SymbolID":1,"AltMode":-1,"Base":0,"Snippet":"","PopupInfo":"","HasLabel":-1,"LabelID":7}},
{"type":"Feature","geometry":{"type":"Point","coordinates":[73.26580306300013,33.66410023200012,0,-1.7976931348623157e+308]},"properties":{"OID_":0,"Name":"Dream Land City, Lehtrar Road Thanda Pani","FolderPath":"Illegal Schemes zones/Illegal Schemes zones.kmz/Illegal Schemes/schemes of zone 4.kmz/schemes of zone 4","SymbolID":1,"AltMode":-1,"Base":0,"Snippet":"","PopupInfo":"","HasLabel":-1,"LabelID":31}},
{"type":"Feature","geometry":{"type":"Point","coordinates":[73.26334771600011,33.661912357000176,0,-1.7976931348623157e+308]},"properties":{"OID_":0,"Name":"SATTI TOWN","FolderPath":"Illegal Schemes zones/Illegal Schemes zones.kmz/Illegal Schemes/schemes of zone 4.kmz/schemes of zone 4","SymbolID":1,"AltMode":-1,"Base":0,"Snippet":"","PopupInfo":"","HasLabel":-1,"LabelID":16}},
{"type":"Feature","geometry":{"type":"Point","coordinates":[73.25935679300005,33.66945352500011,0,-1.7976931348623157e+308]},"properties":{"OID_":0,"Name":"Rawal Enclave, Phase-III, Lethrar Road, Tumair, Islamabad. Head Office: Heaven Street Near Head Start School, Kurri Road, Islamabad","FolderPath":"Illegal Schemes zones/Illegal Schemes zones.kmz/Illegal Schemes/schemes of zone 4.kmz/schemes of zone 4","SymbolID":1,"AltMode":-1,"Base":0,"Snippet":"","PopupInfo":"","HasLabel":-1,"LabelID":18}},
{"type":"Feature","geometry":{"type":"Point","coordinates":[73.26846374100018,33.67213332800003,0,-1.7976931348623157e+308]},"properties":{"OID_":0,"Name":"Asian Ranches Villas","FolderPath":"Illegal Schemes zones/Illegal Schemes zones.kmz/Illegal Schemes/schemes of zone 4.kmz/schemes of zone 4","SymbolID":1,"AltMode":-1,"Base":0,"Snippet":"","PopupInfo":"","HasLabel":-1,"LabelID":18}},
{"type":"Feature","geometry":{"type":"Point","coordinates":[73.24595497200005,33.65645228700015,0,-1.7976931348623157e+308]},"properties":{"OID_":0,"Name":"Margalla Hills","FolderPath":"Illegal Schemes zones/Illegal Schemes zones.kmz/Illegal Schemes/schemes of zone 4.kmz/schemes of zone 4","SymbolID":1,"AltMode":-1,"Base":0,"Snippet":"","PopupInfo":"","HasLabel":-1,"LabelID":23}},
{"type":"Feature","geometry":{"type":"Point","coordinates":[73.26110833299998,33.66745833300007,0,-1.7976931348623157e+308]},"properties":{"OID_":0,"Name":"Blue Enclave","FolderPath":"Illegal Schemes zones/Illegal Schemes zones.kmz/Illegal Schemes/schemes of zone 4.kmz/schemes of zone 4","SymbolID":1,"AltMode":-1,"Base":0,"Snippet":"","PopupInfo":"","HasLabel":-1,"LabelID":1}},
{"type":"Feature","geometry":{"type":"Point","coordinates":[73.23448661900017,33.717876306000164,0,-1.7976931348623157e+308]},"properties":{"OID_":0,"Name":"muzaffarabad town","FolderPath":"Illegal Schemes zones/Illegal Schemes zones.kmz/Illegal Schemes/schemes of zone 4.kmz/schemes of zone 4","SymbolID":1,"AltMode":-1,"Base":0,"Snippet":"","PopupInfo":"","HasLabel":-1,"LabelID":5}},
{"type":"Feature","geometry":{"type":"Point","coordinates":[73.24445926600009,33.718017873000065,0,-1.7976931348623157e+308]},"properties":{"OID_":0,"Name":"kohsar enclave","FolderPath":"Illegal Schemes zones/Illegal Schemes zones.kmz/Illegal Schemes/schemes of zone 4.kmz/schemes of zone 4","SymbolID":1,"AltMode":-1,"Base":0,"Snippet":"","PopupInfo":"","HasLabel":-1,"LabelID":8}},
{"type":"Feature","geometry":{"type":"Point","coordinates":[73.21629265100006,33.76314799600016,0,-1.7976931348623157e+308]},"properties":{"OID_":0,"Name":"Al Wada colony","FolderPath":"Illegal Schemes zones/Illegal Schemes zones.kmz/Illegal Schemes/schemes of zone 4.kmz/schemes of zone 4","SymbolID":1,"AltMode":-1,"Base":0,"Snippet":"","PopupInfo":"","HasLabel":-1,"LabelID":8}},
{"type":"Feature","geometry":{"type":"Point","coordinates":[73.20420804300011,33.629659750000144,0,-1.7976931348623157e+308]},"properties":{"OID_":0,"Name":"Media town 1","FolderPath":"Illegal Schemes zones/Illegal Schemes zones.kmz/Illegal Schemes/schemes of zone 4.kmz/schemes of zone 4","SymbolID":1,"AltMode":-1,"Base":0,"Snippet":"","PopupInfo":"","HasLabel":-1,"LabelID":1}},
{"type":"Feature","geometry":{"type":"Point","coordinates":[73.22675093700013,33.78027424200019,0,-1.7976931348623157e+308]},"properties":{"OID_":0,"Name":"OGDCL Town","FolderPath":"Illegal Schemes zones/Illegal Schemes zones.kmz/Illegal Schemes/schemes of zone 4.kmz/schemes of zone 4","SymbolID":1,"AltMode":-1,"Base":0,"Snippet":"","PopupInfo":"","HasLabel":-1,"LabelID":32}},
{"type":"Feature","geometry":{"type":"Point","coordinates":[73.29387222200006,33.79570000000018,0,-1.7976931348623157e+308]},"properties":{"OID_":0,"Name":"Commooners Sky Gardens","FolderPath":"Illegal Schemes zones/Illegal Schemes zones.kmz/Illegal Schemes/schemes of zone 4.kmz/schemes of zone 4","SymbolID":1,"AltMode":-1,"Base":0,"Snippet":"","PopupInfo":"","HasLabel":-1,"LabelID":1}},
{"type":"Feature","geometry":{"type":"Point","coordinates":[73.26359943500006,33.779110795000065,0,-1.7976931348623157e+308]},"properties":{"OID_":0,"Name":"Dream Land Enclave","FolderPath":"Illegal Schemes zones/Illegal Schemes zones.kmz/Illegal Schemes/schemes of zone 4.kmz/schemes of zone 4","SymbolID":1,"AltMode":-1,"Base":0,"Snippet":"","PopupInfo":"","HasLabel":-1,"LabelID":1}},
{"type":"Feature","geometry":{"type":"Point","coordinates":[73.25918841900011,33.67247317499999,0,-1.7976931348623157e+308]},"properties":{"OID_":0,"Name":"Sanabil Garden","FolderPath":"Illegal Schemes zones/Illegal Schemes zones.kmz/Illegal Schemes/schemes of zone 4.kmz/schemes of zone 4","SymbolID":1,"AltMode":-1,"Base":0,"Snippet":"","PopupInfo":"","HasLabel":-1,"LabelID":1}},
{"type":"Feature","geometry":{"type":"Point","coordinates":[73.17324494300004,33.667665364000015,0,-1.7976931348623157e+308]},"properties":{"OID_":0,"Name":"Centebury Enclave","FolderPath":"Illegal Schemes zones/Illegal Schemes zones.kmz/Illegal Schemes/schemes of zone 4.kmz/schemes of zone 4","SymbolID":1,"AltMode":-1,"Base":0,"Snippet":"","PopupInfo":"","HasLabel":-1,"LabelID":1}},
{"type":"Feature","geometry":{"type":"Point","coordinates":[73.23282655600002,33.64526928200007,0,-1.7976931348623157e+308]},"properties":{"OID_":0,"Name":"ROYAL CITY","FolderPath":"Illegal Schemes zones/Illegal Schemes zones.kmz/Illegal Schemes/schemes of zone 4.kmz/schemes of zone 4","SymbolID":1,"AltMode":-1,"Base":0,"Snippet":"","PopupInfo":"","HasLabel":-1,"LabelID":15}},
{"type":"Feature","geometry":{"type":"Point","coordinates":[73.14741002600005,33.54031336200006,0,-1.7976931348623157e+308]},"properties":{"OID_":0,"Name":"New Model Town Humak","FolderPath":"Illegal Schemes zones/Illegal Schemes zones.kmz/Illegal Schemes/Zone 5","SymbolID":1,"AltMode":-1,"Base":0,"Snippet":"","PopupInfo":"","HasLabel":-1,"LabelID":1}},
{"type":"Feature","geometry":{"type":"Point","coordinates":[73.199469948,33.5596047950001,0,-1.7976931348623157e+308]},"properties":{"OID_":0,"Name":"Fiza Town","FolderPath":"Illegal Schemes zones/Illegal Schemes zones.kmz/Illegal Schemes/Zone 5","SymbolID":1,"AltMode":-1,"Base":0,"Snippet":"","PopupInfo":"","HasLabel":-1,"LabelID":1}},
{"type":"Feature","geometry":{"type":"Point","coordinates":[73.2328649370001,33.5709028440001,0,-1.7976931348623157e+308]},"properties":{"OID_":0,"Name":"Royal Gardens, Japan Road","FolderPath":"Illegal Schemes zones/Illegal Schemes zones.kmz/Illegal Schemes/Zone 5","SymbolID":1,"AltMode":-1,"Base":0,"Snippet":"","PopupInfo":"","HasLabel":-1,"LabelID":1}},
{"type":"Feature","geometry":{"type":"Point","coordinates":[73.27020493300017,33.56272218100008,0,-1.7976931348623157e+308]},"properties":{"OID_":0,"Name":"Samana Smart City and Sawan Farm House","FolderPath":"Illegal Schemes zones/Illegal Schemes zones.kmz/Illegal Schemes/Zone 5","SymbolID":1,"AltMode":-1,"Base":0,"Snippet":"","PopupInfo":"","HasLabel":-1,"LabelID":1}},
{"type":"Feature","geometry":{"type":"Point","coordinates":[73.19835932000012,33.481076669000004,0,-1.7976931348623157e+308]},"properties":{"OID_":0,"Name":"Rawat Housing Scheme","FolderPath":"Illegal Schemes zones/Illegal Schemes zones.kmz/Illegal Schemes/Zone 5","SymbolID":1,"AltMode":-1,"Base":0,"Snippet":"","PopupInfo":"","HasLabel":-1,"LabelID":1}},
{"type":"Feature","geometry":{"type":"Point","coordinates":[73.19993241800012,33.49285636700017,0,-1.7976931348623157e+308]},"properties":{"OID_":0,"Name":"Rawat Enclave","FolderPath":"Illegal Schemes zones/Illegal Schemes zones.kmz/Illegal Schemes/Zone 5","SymbolID":1,"AltMode":-1,"Base":0,"Snippet":"","PopupInfo":"","HasLabel":-1,"LabelID":1}},
{"type":"Feature","geometry":{"type":"Point","coordinates":[73.18819878600004,33.50111948600005,0,-1.7976931348623157e+308]},"properties":{"OID_":0,"Name":"Ayesha Town","FolderPath":"Illegal Schemes zones/Illegal Schemes zones.kmz/Illegal Schemes/Zone 5","SymbolID":1,"AltMode":-1,"Base":0,"Snippet":"","PopupInfo":"","HasLabel":-1,"LabelID":1}},
{"type":"Feature","geometry":{"type":"Point","coordinates":[73.18784524500018,33.50230695400006,0,-1.7976931348623157e+308]},"properties":{"OID_":0,"Name":"AYESHA TOWN","FolderPath":"Illegal Schemes zones/Illegal Schemes zones.kmz/Illegal Schemes/Zone 5/AYESHA TOWN.kmz","SymbolID":3,"AltMode":-1,"Base":0,"Snippet":"","PopupInfo":"","HasLabel":-1,"LabelID":1}},
{"type":"Feature","geometry":{"type":"Point","coordinates":[73.17149111200018,33.49604356700007,0,-1.7976931348623157e+308]},"properties":{"OID_":0,"Name":"Euro Enclave","FolderPath":"Illegal Schemes zones/Illegal Schemes zones.kmz/Illegal Schemes/Zone 5","SymbolID":1,"AltMode":-1,"Base":0,"Snippet":"","PopupInfo":"","HasLabel":-1,"LabelID":1}},
{"type":"Feature","geometry":{"type":"Point","coordinates":[73.17309317700011,33.505214202000104,0,-1.7976931348623157e+308]},"properties":{"OID_":0,"Name":"Euro Enclave","FolderPath":"Illegal Schemes zones/Illegal Schemes zones.kmz/Illegal Schemes/Zone 5/Euro Enclave.kmz","SymbolID":1,"AltMode":-1,"Base":0,"Snippet":"","PopupInfo":"","HasLabel":-1,"LabelID":1}},
{"type":"Feature","geometry":{"type":"Point","coordinates":[73.12295317500019,33.565304061000006,0,-1.7976931348623157e+308]},"properties":{"OID_":0,"Name":"MEDIA TOWN","FolderPath":"Illegal Schemes zones/Illegal Schemes zones.kmz/Illegal Schemes/Zone 5","SymbolID":1,"AltMode":-1,"Base":0,"Snippet":"","PopupInfo":"","HasLabel":-1,"LabelID":1}},
{"type":"Feature","geometry":{"type":"Point","coordinates":[73.13575105600012,33.5698780890001,0,-1.7976931348623157e+308]},"properties":{"OID_":0,"Name":"National Police Foundation housing Scheme","FolderPath":"Illegal Schemes zones/Illegal Schemes zones.kmz/Illegal Schemes/Zone 5","SymbolID":1,"AltMode":-1,"Base":0,"Snippet":"","PopupInfo":"","HasLabel":-1,"LabelID":1}},
{"type":"Feature","geometry":{"type":"Point","coordinates":[73.1330873930001,33.5671288100001,0,-1.7976931348623157e+308]},"properties":{"OID_":0,"Name":"NATIONAL POLICE FOUNDATION","FolderPath":"Illegal Schemes zones/Illegal Schemes zones.kmz/Illegal Schemes/Zone 5/NATIONAL POLICE FOUNDATION.kmz","SymbolID":3,"AltMode":-1,"Base":0,"Snippet":"","PopupInfo":"","HasLabel":-1,"LabelID":1}},
{"type":"Feature","geometry":{"type":"Point","coordinates":[73.15104467400005,33.55139462000017,0,-1.7976931348623157e+308]},"properties":{"OID_":0,"Name":"Aiza Garden, Kahuta road","FolderPath":"Illegal Schemes zones/Illegal Schemes zones.kmz/Illegal Schemes/Zone 5","SymbolID":1,"AltMode":-1,"Base":0,"Snippet":"","PopupInfo":"","HasLabel":-1,"LabelID":1}},
{"type":"Feature","geometry":{"type":"Point","coordinates":[73.14888508600006,33.55065699800002,0,-1.7976931348623157e+308]},"properties":{"OID_":0,"Name":"AIZA TOWN","FolderPath":"Illegal Schemes zones/Illegal Schemes zones.kmz/Illegal Schemes/Zone 5/AIZA TOWN.kmz","SymbolID":3,"AltMode":-1,"Base":0,"Snippet":"","PopupInfo":"","HasLabel":-1,"LabelID":1}},
{"type":"Feature","geometry":{"type":"Point","coordinates":[73.13365711000006,33.52611183400006,0,-1.7976931348623157e+308]},"properties":{"OID_":0,"Name":"Fatima Villa","FolderPath":"Illegal Schemes zones/Illegal Schemes zones.kmz/Illegal Schemes/Zone 5","SymbolID":1,"AltMode":-1,"Base":0,"Snippet":"","PopupInfo":"","HasLabel":-1,"LabelID":1}},
{"type":"Feature","geometry":{"type":"Point","coordinates":[73.1314861100002,33.523869885000124,0,-1.7976931348623157e+308]},"properties":{"OID_":0,"Name":"Fatima Villa, GT Road","FolderPath":"Illegal Schemes zones/Illegal Schemes zones.kmz/Illegal Schemes/Zone 5/Fatima Villa, GT Road.kmz","SymbolID":1,"AltMode":-1,"Base":0,"Snippet":"","PopupInfo":"80% Development","HasLabel":-1,"LabelID":1}},
{"type":"Feature","geometry":{"type":"Point","coordinates":[73.14709204500014,33.57291051800013,0,-1.7976931348623157e+308]},"properties":{"OID_":0,"Name":"Pak PWD, Islamabad Highway","FolderPath":"Illegal Schemes zones/Illegal Schemes zones.kmz/Illegal Schemes/Zone 5","SymbolID":1,"AltMode":-1,"Base":0,"Snippet":"","PopupInfo":"","HasLabel":-1,"LabelID":1}}
]}